[
    {
      "name": "City Hospital",
      "latitude": 40.7128,
      "longitude": -74.0060,
      "phone": "+1-555-1234"
    },
    {
      "name": "Green Valley Medical",
      "latitude": 34.0522,
      "longitude": -118.2437,
      "phone": "+1-555-5678"
    },
    {
      "name": "Sunnydale Hospital",
      "latitude": 36.7783,
      "longitude": -119.4179,
      "phone": "+1-555-2345"
    },
    {
      "name": "Mountain View Medical Center",
      "latitude": 37.7749,
      "longitude": -122.4194,
      "phone": "+1-555-6789"
    },
    {
      "name": "Lakeside Health Clinic",
      "latitude": 40.7608,
      "longitude": -111.8910,
      "phone": "+1-555-9876"
    },
    {
      "name": "Riverbend General Hospital",
      "latitude": 41.8781,
      "longitude": -87.6298,
      "phone": "+1-555-5432"
    },
    {
      "name": "Maplewood Medical Center",
      "latitude": 39.7392,
      "longitude": -104.9903,
      "phone": "+1-555-8765"
    },
    {
      "name": "Oakland Medical Center",
      "latitude": 37.8044,
      "longitude": -122.2711,
      "phone": "+1-555-3456"
    },
    {
      "name": "Silver Creek Hospital",
      "latitude": 42.3601,
      "longitude": -71.0589,
      "phone": "+1-555-4321"
    },
    {
      "name": "Westwood Health Clinic",
      "latitude": 33.8688,
      "longitude": -118.2208,
      "phone": "+1-555-6543"
    },
    {
      "name": "Highland Park General",
      "latitude": 43.0731,
      "longitude": -89.4012,
      "phone": "+1-555-7654"
    },
    {
      "name": "Pine Valley Medical Center",
      "latitude": 44.0521,
      "longitude": -123.0867,
      "phone": "+1-555-8764"
    },
    {
      "name": "Willowbrook Health Services",
      "latitude": 36.1627,
      "longitude": -86.7816,
      "phone": "+1-555-2109"
    },
    {
      "name": "Cedarwood Hospital",
      "latitude": 38.9072,
      "longitude": -77.0369,
      "phone": "+1-555-3210"
    },
    {
      "name": "Eastside Medical Center",
      "latitude": 32.7767,
      "longitude": -96.7970,
      "phone": "+1-555-4322"
    },
    {
      "name": "Seaside General Hospital",
      "latitude": 36.5780,
      "longitude": -122.0270,
      "phone": "+1-555-3457"
    },
    {
      "name": "Parkland Health Center",
      "latitude": 35.1495,
      "longitude": -90.0490,
      "phone": "+1-555-6547"
    },
    {
      "name": "Northwood Medical Clinic",
      "latitude": 40.7484,
      "longitude": -73.9857,
      "phone": "+1-555-1235"
    },
    {
      "name": "Sunnybrook Hospital",
      "latitude": 34.0522,
      "longitude": -118.2437,
      "phone": "+1-555-1357"
    },
    {
      "name": "Sunset General Medical Center",
      "latitude": 38.8954,
      "longitude": -77.0365,
      "phone": "+1-555-2468"
    }
  ]
  